[
  {
    "dp_number": "54321098",
    "dp_name": "Coneyhurst",
    "latitude": 51.163231,
    "longitude": -0.599544
  },
  {
    "dp_number": "30946788",
    "dp_name": "1 Abdon Close",
    "latitude": 51.199817,
    "longitude": -2.008251
  },
  {
    "dp_number": "35407564",
    "dp_name": "Yew Tree House",
    "latitude": 51.265827,
    "longitude": -2.311470
  },
  {
    "dp_number": "65165640",
    "dp_name": "National Trust Stourhead Storton",
    "latitude": 51.104494,
    "longitude": -2.318481
  },
    {
    "dp_number": "65165641",
    "dp_name": "Stourhead Stourton",
    "latitude": 51.103706,
    "longitude": -2.317694
  },
  {
    "dp_number": "8500014660",
    "dp_name": "Lower Mere Park Farm",
    "latitude": 51.066363,
    "longitude": -2.235005
  }
]
